[
  {
    "language": "en",
    "data": [
      {
        "id": "1",
        "type": "カフェ、食事",
        "district": "土丸",
        "name": "チェヘーラ・シャムロック",
        "address": "〒598-0022 大阪府泉佐野市土丸320-2",
        "tell": "072-467-2757",
        "home-page": "null",
        "open-time": "10：00～20：00木曜のみ13：00開店",
        "note": "来店の際は要予約",
        "image": "null",
        "lat": "3,437,173",
        "long": "13,535,074"
      },
      {
        "id": "2",
        "type": "カフェ",
        "district": "日根野",
        "name": "café blow(カフェブロウ)",
        "address": "〒590-0021　大阪府泉佐野市日根野3963-3",
        "tell": "090-5127-9187",
        "home-page": "https://cafeblow.com",
        "open-time": "10：00～17：00",
        "note": "null",
        "image": "null",
        "lat": "3,439,244",
        "long": "13,533,107"
      },
      {
        "id": "3",
        "type": "カフェ、食事",
        "district": "犬鳴",
        "name": "カフェテラス空",
        "address": "〒598-0023 大阪府泉佐野市大木７番地",
        "tell": "072-459-7381",
        "home-page": "null",
        "open-time": "9：00～21：00/毎週木曜・金曜",
        "note": "null",
        "image": "null",
        "lat": "3,434,240",
        "long": "13,537,458"
      },
      {
        "id": "4",
        "type": "カフェ、食事",
        "district": "日根野",
        "name": "ワルナワルニ",
        "address": "〒598-0021 泉佐野市日根野2918-15",
        "tell": "090-9881-4852",
        "home-page": "https://cafewarnawarni.wixsite.com",
        "open-time": "9：00～17：00/毎週水曜、第２、第４土日",
        "note": "null",
        "image": "null",
        "lat": "3,438,282",
        "long": "13,533,310"
      },
      {
        "id": "5",
        "type": "カフェ、食事",
        "district": "日根野",
        "name": "つろぎ",
        "address": "〒590-0405泉南郡熊取町大久保南4-1351-1",
        "tell": "072-451-3733",
        "home-page": "https://tsurogi.com",
        "open-time": "11:00～22：00/毎週火曜",
        "note": "ディナーは完全予約制",
        "image": "null",
        "lat": "3,438,997",
        "long": "13,534,333"
      },
      {
        "id": "6",
        "type": "特産品、地元生鮮品販売",
        "district": "日根野",
        "name": "こーたり～な",
        "address": "〒598-0008 大阪府泉佐野市松風台3-1-1",
        "tell": "072-458-0070",
        "home-page": "https://kotarina.com",
        "open-time": "9：45～17：00/第３木曜",
        "note": "null",
        "image": "null",
        "lat": "3,439,845",
        "long": "13,533,174"
      },
      {
        "id": "7",
        "type": "地酒販売",
        "district": "日根野",
        "name": "北庄司酒造",
        "address": "〒598-0021 大阪府泉佐野市日根野3173",
        "tell": "072-468-0850",
        "home-page": "https://www.kitashouji.jp",
        "open-time": "8：00～17：00/不定休",
        "note": "酒造見学は要予約",
        "image": "null",
        "lat": "3,438,070",
        "long": "13,532,864"
      },
      {
        "id": "8",
        "type": "食事/入浴/宿泊",
        "district": "犬鳴",
        "name": "不動口館",
        "address": "〒598-0023 大阪府泉佐野市大木７番地",
        "tell": "072-459-7326",
        "home-page": "http://www.fudouguchikan.com",
        "open-time": "電話受付時間8：00～21：30",
        "note": "ランチ及び日帰り入浴対応可能",
        "image": "null",
        "lat": "3,434,258",
        "long": "13,537,426"
      },
      {
        "id": "9",
        "type": "食事/入浴/宿泊",
        "district": "犬鳴",
        "name": "み奈美亭",
        "address": "〒598-0023 大阪府泉佐野市大木2236",
        "tell": " 072-459-7336",
        "home-page": "http://www.minamitei.com",
        "note": "ランチ及び日帰り入浴対応可能",
        "image": "null",
        "lat": "3,434,237",
        "long": "13,537,472"
      },
      {
        "id": "10",
        "type": "食事/入浴/宿泊",
        "district": "犬鳴",
        "name": "温泉センター",
        "address": "〒598-0023大阪府泉佐野市大木2238-2",
        "tell": "072-459-7208",
        "home-page": "null",
        "open-time": "9：00～18：00/毎週水曜",
        "note": "宿泊は火曜・水曜以外対応可能",
        "image": "null",
        "lat": "3,434,197",
        "long": "13,537,530"
      },
      {
        "id": "11",
        "type": "食事/入浴/宿泊",
        "district": "犬鳴",
        "name": "湯元温泉荘(日帰り山乃湯)",
        "address": "〒598-0023大阪府泉佐野市大木2234",
        "tell": "072-459-7015",
        "home-page": "null",
        "open-time": "日帰り入浴10：00～18：00",
        "note": "日帰り入浴/大人700円",
        "image": "null",
        "lat": "3,434,082",
        "long": "13,537,489"
      },
      {
        "id": "12",
        "type": "食事",
        "district": "犬鳴",
        "name": "犬鳴山バーベキュー                                   　nikuniku",
        "address": "〒598-0023　大阪府泉佐野市大木1772",
        "tell": "072-459-7259",
        "home-page": "null",
        "open-time": "10:00～22：00　　　　　　　　　　　　　　　(バーベキューは18：00まで)",
        "note": "バーベキューは持ち込みも可",
        "image": "null",
        "lat": "3,434,710",
        "long": "13,537,652"
      },
      {
        "id": "13",
        "type": "和菓子(銘菓いろは蔵)",
        "district": "泉佐野駅前",
        "name": "むか新(本店)",
        "address": "〒598-0007大阪府泉佐野市上町３丁目11-4",
        "tell": "072-464-0100",
        "home-page": "http://www.mukashin.com",
        "open-time": "9：00～19：00/毎週水曜",
        "note": "本店ほか市内羽倉崎にも支店あり",
        "image": "null",
        "lat": "3,441,139",
        "long": "13,531,844"
      },
      {
        "id": "14",
        "type": "洋菓子(佐野町マドレーヌ)",
        "district": "中庄",
        "name": "まつみ玄璽",
        "address": "〒598-0002大阪府泉佐野市中庄876-1",
        "tell": "072-462-1382",
        "home-page": "https://matsumi-genji.com",
        "open-time": "9：00～18：00/毎週水曜、第１・第３火曜",
        "note": "null",
        "image": "null",
        "lat": "3,441,236",
        "long": "13,532,965"
      },
      {
        "id": "15",
        "type": "食事/お土産",
        "district": "泉佐野漁港",
        "name": "青空市場",
        "address": "〒598-0051大阪府泉佐野市新町２丁目5187番101",
        "tell": "072-469-2340",
        "home-page": "http://www.aozora-ichiba.com",
        "open-time": "10：00～17：00/毎週水曜",
        "note": "当日水揚げされた魚介類は午後2時半以降に店頭に並ぶ",
        "image": "null",
        "lat": "3,442,056",
        "long": "13,531,524"
      },
      {
        "id": "16",
        "type": "犬鳴ポーク直売所",
        "district": "高松町",
        "name": "犬鳴ポーク販売所",
        "address": "〒598-0016大阪府泉佐野市高松西２丁目2414-7",
        "tell": "072-458-8050",
        "home-page": "http://inunakibuta.gourmet.coocan.jp",
        "open-time": "10：00～17：00/毎週火曜・水曜・木曜",
        "note": "null",
        "image": "null",
        "lat": "3,440,193",
        "long": "13,530,675"
      },
      {
        "id": "17",
        "type": "立飲み/水なすや玉ねぎを使ったバーガー",
        "district": "泉佐野駅前",
        "name": "ローンスター",
        "address": "〒598-0054大阪府泉佐野市栄町4-13",
        "tell": "072-461-1444",
        "home-page": "null",
        "open-time": "11：30～14：00、16：00～24：00/毎週火曜",
        "note": "null",
        "image": "null",
        "lat": "3,441,224",
        "long": "13,531,715"
      },
      {
        "id": "18",
        "type": "食事/郷土料理・地酒",
        "district": "泉佐野駅前",
        "name": "植田",
        "address": "〒598-0055大阪府泉佐野市若宮町1-22",
        "tell": "072-462-0344",
        "home-page": "https://www.oshokujidokoro-ueda.com",
        "open-time": "11：00～22：00(日曜は21：00まで)/毎週月曜",
        "note": "null",
        "image": "null",
        "lat": "3,441,146",
        "long": "13,531,659"
      },
      {
        "id": "19",
        "type": "居酒屋/郷土料理・地酒",
        "district": "笠松",
        "name": "たかだ(浜店)",
        "address": "〒598-0044大阪府泉佐野市笠松1-7-43",
        "tell": "072-457-5713",
        "home-page": "https://shuboutakada.shopinfo.jp",
        "open-time": "17：00～24：00/毎週月曜",
        "note": "※現在本店は休業中",
        "image": "null",
        "lat": "3,441,376",
        "long": "13,530,767"
      },
      {
        "id": "20",
        "type": "割烹                                         (大阪湾のワタリガニ)",
        "district": "市場",
        "name": "松屋",
        "address": "〒598-0005大阪府泉佐野市市場東2-312-3",
        "tell": "072-462-3740",
        "home-page": "https://www.kappo-matsuya.com",
        "open-time": "12：00～14：00、17：30～21：30/毎週月曜、第１第３火曜",
        "note": "null",
        "image": "null",
        "lat": "3,440,808",
        "long": "13,532,456"
      },
      {
        "id": "21",
        "type": "水なす販売",
        "district": "佐野町場",
        "name": "水なす　マコト商店",
        "address": "〒598-0053大阪府泉佐野市大宮町12-6",
        "tell": "072-462-0440",
        "home-page": "https://mizunasumakoto.jp",
        "open-time": "10：00～17：00",
        "note": "※水曜・木曜・金曜のみ営業",
        "image": "null",
        "lat": "3,441,376",
        "long": "13,531,837"
      },
      {
        "id": "22",
        "type": "水なす販売",
        "district": "つばさ通り商店街",
        "name": "有限会社　熊文商店",
        "address": "〒598-0053大阪府泉佐野市大宮町14-5",
        "tell": "072-462-0120",
        "open-time": "8：30～19：00/毎週水曜",
        "note": "冬季は水なすの取扱いがない場合もあるので要問合せ。",
        "image": "null",
        "lat": "3,441,400",
        "long": "13,531,705"
      },
      {
        "id": "23",
        "type": "洋菓子販売/カフェ",
        "district": "中町",
        "name": "ティラミッシモ",
        "address": "〒598-0013大阪府泉佐野市中町2-2-33",
        "tell": "072-461-2202",
        "home-page": "https://tiramissimo.com",
        "open-time": "11：00～18：00",
        "note": "カフェ定休日：毎週水曜日　※テイクアウトは年中無休",
        "image": "null",
        "lat": "3,440,186",
        "long": "13,531,512"
      },
      {
        "id": "24",
        "type": "食事(寿司)",
        "district": "日根野",
        "name": "佳羅守すし半",
        "address": "〒598-0021泉佐野市日根野7041-1",
        "tell": "072-468-1020",
        "open-time": "11：00～22：00",
        "note": "無休",
        "image": "null",
        "lat": "3,439,193",
        "long": "13,533,237"
      },
      {
        "id": "25",
        "type": "食事",
        "district": "日根野",
        "name": "美味彩菜　十色",
        "address": "〒598-0021泉佐野市日根野7039",
        "tell": "072-467-2522",
        "home-page": "http://hineno-toiro.cocotte.jp/",
        "open-time": "11:30～14：30、17：30～21：30/毎週水曜",
        "note": "お弁当、オードブルもあり",
        "image": "null",
        "lat": "3,439,179",
        "long": "13,533,218"
      }
    ]
  }
]
